[{"name":"Lawrence Reeves","location":{"lat":52.72423653147739,"lon":-0.6552093528558713}},{"name":"Nina Raynor","location":{"lat":53.00351656212984,"lon":0.4104543801588729}},{"name":"Lewis Cash","location":{"lat":53.09118581751998,"lon":-0.8598195454652799}},{"name":"Leo Coleman","location":{"lat":52.42411382160931,"lon":0.14517595189419197}},{"name":"Roger McMahon","location":{"lat":52.327443055381565,"lon":-0.48225048079812627}},{"name":"Melvin Dawson","location":{"lat":52.493594828423376,"lon":-1.5635536447078404}},{"name":"Steven Chambers","location":{"lat":53.701079436523976,"lon":-0.6826144068524682}},{"name":"Patrick Drake","location":{"lat":52.60679744208761,"lon":-1.2423525322642157}},{"name":"Regina Frazier","location":{"lat":52.456954645254925,"lon":-2.42441872865826}},{"name":"Jerry Lewis","location":{"lat":52.75334385188858,"lon":-2.495809280167389}},{"name":"Vincent Archer","location":{"lat":52.450729764469344,"lon":-1.0238957311175052}},{"name":"Eric Harvey","location":{"lat":52.0686389314887,"lon":-0.6169630518209712}},{"name":"Sally Myers","location":{"lat":53.14973523728591,"lon":-1.0474330692205187}},{"name":"Kara Lowry","location":{"lat":53.184626011807275,"lon":-0.5262032909415186}},{"name":"Karl Clapp","location":{"lat":53.26461180112675,"lon":-1.390877179044134}},{"name":"Vernon McKenzie","location":{"lat":52.79492257650282,"lon":-2.2215892515873814}},{"name":"Pauline Garrett","location":{"lat":52.0188111930682,"lon":-2.260212931033439}},{"name":"Edith Norman","location":{"lat":51.74375499980278,"lon":-0.3821175178416456}},{"name":"Leigh Starr","location":{"lat":53.2610146332103,"lon":-0.9526693803637025}},{"name":"Tara Stephens","location":{"lat":51.662335082809875,"lon":-1.796551183831717}},{"name":"Eugene Rankin","location":{"lat":53.478737410850464,"lon":-1.2344587567011385}},{"name":"Ron Hahn","location":{"lat":52.91621683832254,"lon":-0.9708556890427251}},{"name":"Elsie Payne","location":{"lat":53.14860887058921,"lon":-2.3255634522587556}},{"name":"Hazel Bond","location":{"lat":52.69162216734819,"lon":-1.6954094997778346}},{"name":"Sam Huffman","location":{"lat":53.81445052341743,"lon":0.21707034608329012}},{"name":"Scott Frazier","location":{"lat":53.933306103006345,"lon":-1.0377596040980397}},{"name":"Edna Pruitt","location":{"lat":53.27722166728601,"lon":-1.356824208758729}},{"name":"Jordan Shah","location":{"lat":53.231874175847096,"lon":-0.3797975343956175}},{"name":"Kim Wu","location":{"lat":52.212246915534166,"lon":0.42668317275812573}},{"name":"Edna Pollard","location":{"lat":52.94215017828564,"lon":-2.0604653835095013}},{"name":"Sara Ashley","location":{"lat":52.12140166291796,"lon":-0.8420170294492664}},{"name":"Eddie McCormick","location":{"lat":52.400401218637086,"lon":-2.378459140830031}},{"name":"Erica Keith","location":{"lat":52.96709532261678,"lon":-2.032484131696094}},{"name":"Francis Underwood","location":{"lat":52.830962932085406,"lon":-1.8371245578791855}},{"name":"Nelson Hendrix","location":{"lat":52.54742730613576,"lon":-1.1161088302751747}},{"name":"Danny Creech","location":{"lat":51.772663631490516,"lon":-1.9568581777535539}},{"name":"Maxine Ayers","location":{"lat":53.398364478775505,"lon":0.3326477857346486}},{"name":"Toni Kendall","location":{"lat":53.69078144421082,"lon":-1.5895882493713713}},{"name":"Scott Richmond","location":{"lat":53.75671215851248,"lon":-0.23255181760370291}},{"name":"Danny Connolly","location":{"lat":51.86950005827057,"lon":-0.7694562706431929}},{"name":"Kathleen Lehman","location":{"lat":53.37038869504765,"lon":-1.0167128098805063}},{"name":"Jeanette Jacobs","location":{"lat":53.510532024836,"lon":-1.47762106619399}},{"name":"Jennifer Carey","location":{"lat":52.52370904980832,"lon":-0.6620267193590137}},{"name":"Holly Harper","location":{"lat":52.81374630150198,"lon":-0.2549874212583245}},{"name":"Barbara Gibbs","location":{"lat":53.786701735236164,"lon":-0.6730143099257893}},{"name":"Dianne Aycock","location":{"lat":53.40020593699117,"lon":-0.7904393590430017}},{"name":"Becky Wooten","location":{"lat":53.53744441697389,"lon":-2.2399303634835546}},{"name":"Joann Davies","location":{"lat":51.69074438223173,"lon":-0.6404588349751235}},{"name":"Edwin Dalton","location":{"lat":52.20815297568423,"lon":-1.9997001039982276}},{"name":"Jessie Lyon","location":{"lat":53.4072096206568,"lon":-2.2033303793117898}},{"name":"Wayne Lang","location":{"lat":51.95418552218169,"lon":0.4586386655550587}},{"name":"Billie Weaver","location":{"lat":53.690915268496056,"lon":-0.21340606447229327}},{"name":"Milton Fuller","location":{"lat":52.75836102040676,"lon":-1.0546626091080573}},{"name":"Janet Avery","location":{"lat":51.92743227574381,"lon":-0.4743431506508604}},{"name":"Rosemary Han","location":{"lat":52.05695173622085,"lon":-1.5925950032050167}},{"name":"Ethel Werner","location":{"lat":53.634943123079864,"lon":-0.8643905778386833}},{"name":"Daniel Grossman","location":{"lat":53.51367718538172,"lon":-1.9535987982419434}},{"name":"Mitchell McLamb","location":{"lat":53.3893614090687,"lon":-0.4373086287261603}},{"name":"Andrea Christian","location":{"lat":52.3950802109577,"lon":-1.813691874307454}},{"name":"Randall Lowry","location":{"lat":53.22983730918682,"lon":0.2633646946979966}},{"name":"Annette Davenport","location":{"lat":53.22412018564871,"lon":0.4181337877963154}},{"name":"Penny Hedrick","location":{"lat":52.87461139812029,"lon":-1.590208713100762}},{"name":"Samantha McMillan","location":{"lat":53.42659750458577,"lon":-2.5728422444574246}},{"name":"Lloyd Newton","location":{"lat":52.788020914830525,"lon":-0.1724245230969097}},{"name":"Edith Gray","location":{"lat":53.252636660378606,"lon":-1.1005592206389048}},{"name":"Jennifer Adkins","location":{"lat":52.22205452791868,"lon":-1.919066092364676}},{"name":"Alex McCormick","location":{"lat":52.88874477497727,"lon":-1.696506605946628}},{"name":"Evan Gates","location":{"lat":52.28863504336567,"lon":-1.1605496167117089}},{"name":"Dwight Moser","location":{"lat":51.77788603725647,"lon":-1.16542115875161}},{"name":"Jose Stafford","location":{"lat":53.680565548183,"lon":-2.7333047794453273}},{"name":"Bryan Patterson","location":{"lat":51.86430768010282,"lon":-1.0217352429266677}},{"name":"Ricky Link","location":{"lat":52.68333148567549,"lon":-2.1517500001220746}},{"name":"Alice Wiley","location":{"lat":53.244005144339454,"lon":-2.5788982058867456}},{"name":"Ashley Bishop","location":{"lat":51.553685328764175,"lon":-0.052440128730143254}},{"name":"Lloyd Teague","location":{"lat":53.14500312189412,"lon":0.23085854439021114}},{"name":"Karen Gallagher","location":{"lat":53.470134517562535,"lon":-1.2245845384509475}},{"name":"Geraldine Hayes","location":{"lat":51.63722328921265,"lon":0.29801410375174164}},{"name":"Michael Rodgers","location":{"lat":52.649886851146455,"lon":-0.2808466956481719}},{"name":"Leo Mueller","location":{"lat":52.92490098861467,"lon":-1.5731492361990498}},{"name":"Charlene Hester","location":{"lat":53.862316709177534,"lon":-0.6659095942202131}},{"name":"Keith Mercer","location":{"lat":52.897869017521195,"lon":-2.5436706823345774}},{"name":"Marvin Cole","location":{"lat":52.813645748260754,"lon":0.311570893683744}},{"name":"Stephen Wright","location":{"lat":51.97824548490563,"lon":-2.5431290074360153}},{"name":"Marshall Harding","location":{"lat":53.22926384013949,"lon":-1.768214974126284}},{"name":"Alison Hart","location":{"lat":51.79825181264925,"lon":-0.6011890889778586}},{"name":"Marc Hampton","location":{"lat":52.6817423621369,"lon":-2.4201418531925363}},{"name":"Diana Patrick","location":{"lat":51.656779682841865,"lon":-1.197021113914196}},{"name":"Ben Crabtree","location":{"lat":52.0213681220818,"lon":-1.525732803760666}},{"name":"Zachary Han","location":{"lat":52.532779611830186,"lon":-0.8542506685618965}},{"name":"Neil Rodgers","location":{"lat":52.57028574702172,"lon":-0.08840053677608628}},{"name":"Shannon Hirsch","location":{"lat":53.479822572733895,"lon":-1.81589839310706}},{"name":"Greg Richards","location":{"lat":53.01498215426001,"lon":-1.8989088420724713}},{"name":"Jacob Fox","location":{"lat":53.17979589922795,"lon":-1.19725100995701}},{"name":"Jennifer Kuhn","location":{"lat":52.71242331432966,"lon":-2.035560136063842}},{"name":"Holly Mann","location":{"lat":53.61531953331336,"lon":-1.9588782041001722}},{"name":"Leah Martin","location":{"lat":53.375812599610235,"lon":-1.219986776471846}},{"name":"Bob Nicholson","location":{"lat":53.49913797902363,"lon":-1.6960724730491175}},{"name":"Rodney Barbee","location":{"lat":52.32779053275569,"lon":-0.5914829686218375}},{"name":"Mike Stanton","location":{"lat":53.37609221003812,"lon":-2.339304564858808}},{"name":"Ron Todd","location":{"lat":52.56244079534424,"lon":-1.1805136543530848}},{"name":"Tracy Nixon","location":{"lat":53.69718082576654,"lon":-1.7287005888643858}},{"name":"Kenneth Gonzalez","location":{"lat":52.72165262935841,"lon":-2.4316196429155257}},{"name":"Claudia Roach","location":{"lat":52.491533709352225,"lon":-0.10917385736439478}},{"name":"Shirley Braswell","location":{"lat":53.8632058195048,"lon":-2.636866821717059}},{"name":"Allison Kent","location":{"lat":52.127806350585686,"lon":-0.9685703656262521}},{"name":"Dorothy Swanson","location":{"lat":52.11767005934532,"lon":-0.6810935512339693}},{"name":"Denise Morrow","location":{"lat":52.569970140927424,"lon":-0.8402125094382251}},{"name":"Diana Petersen","location":{"lat":53.78831555367483,"lon":-2.1053651903875608}},{"name":"Sharon Deal","location":{"lat":52.79493576719791,"lon":-2.4510983645071653}},{"name":"Angela Skinner","location":{"lat":53.915888351883666,"lon":-1.7220715984705321}},{"name":"Marilyn Finley","location":{"lat":53.12110257360681,"lon":-2.000095880989349}},{"name":"William Blair","location":{"lat":52.19704790018069,"lon":-0.11357746640781219}},{"name":"Debbie Fowler","location":{"lat":52.98515862270683,"lon":-0.23294043064365466}},{"name":"Carrie Doyle","location":{"lat":53.72805125525042,"lon":-0.4545766599685481}},{"name":"Erica Dickson","location":{"lat":51.77796794787474,"lon":-1.913368334005735}},{"name":"Floyd Anthony","location":{"lat":51.854796011875514,"lon":-1.9448057367317912}},{"name":"Jack Parsons","location":{"lat":53.4904058788339,"lon":-1.793901446786064}},{"name":"Sean Park","location":{"lat":53.10717902935428,"lon":-1.1757478801667216}},{"name":"Thomas Brandt","location":{"lat":52.83617118122692,"lon":-0.771974781031183}},{"name":"Marianne Jacobs","location":{"lat":53.43698682107492,"lon":-0.10005656029147136}},{"name":"Wanda Pugh","location":{"lat":53.201137082565666,"lon":-0.6903946297546821}},{"name":"Tiffany Carson","location":{"lat":53.24285535099164,"lon":-1.502922859035089}},{"name":"Anne Aldridge","location":{"lat":51.962244873136314,"lon":-2.7328763844535255}},{"name":"Monica Wood","location":{"lat":53.54999876687085,"lon":0.30743091572904335}},{"name":"Caroline Schroeder","location":{"lat":52.23326428272803,"lon":-0.709642160481482}},{"name":"Marsha Duke","location":{"lat":52.84168810841572,"lon":-1.5187382049040496}},{"name":"Ricky Stein","location":{"lat":51.537743476686686,"lon":0.3826162012329748}},{"name":"Nathan Thornton","location":{"lat":52.71969744261636,"lon":-1.2671007952883466}},{"name":"Patrick Keller","location":{"lat":53.613552971871,"lon":-1.245393813904985}},{"name":"Brent Howard","location":{"lat":53.64093391514483,"lon":0.35285390967063845}},{"name":"Rachel Rouse","location":{"lat":52.43695933633056,"lon":-0.192956337177566}},{"name":"Johnny Khan","location":{"lat":53.92966688007904,"lon":-1.3176302058206946}},{"name":"Gregory Joyner","location":{"lat":52.13164091253887,"lon":0.25796280421189755}},{"name":"Sheila Mathews","location":{"lat":51.55870939538975,"lon":-0.6935947368663635}},{"name":"Eugene Lehman","location":{"lat":52.04020417549922,"lon":-0.3840315489754329}},{"name":"Teresa Liu","location":{"lat":51.59233224144765,"lon":-2.200067084626712}},{"name":"Lorraine Chang","location":{"lat":52.759405264966766,"lon":-1.5890544834016953}},{"name":"Vernon Prince","location":{"lat":52.734479697534184,"lon":-0.6986023204873351}},{"name":"Justin Ennis","location":{"lat":52.835373579992876,"lon":0.06110810593703375}},{"name":"Vincent Lawrence","location":{"lat":51.757082503291905,"lon":-0.5823482426200379}},{"name":"Gordon Best","location":{"lat":53.293091473895345,"lon":-0.31962478499488256}},{"name":"Bobby Dalton","location":{"lat":52.98808178462397,"lon":-2.4556097526333063}},{"name":"Warren Nash","location":{"lat":53.46765494363579,"lon":-0.8374952400072555}},{"name":"Bob Dolan","location":{"lat":52.185696747691495,"lon":0.3807196212912136}},{"name":"Sandra Hewitt","location":{"lat":53.29478460020169,"lon":-1.940671723681401}},{"name":"Tracey Wade","location":{"lat":53.83493757882635,"lon":-1.8114582982149046}},{"name":"Willie Langston","location":{"lat":52.33091793576249,"lon":0.04570799675451109}},{"name":"Brad Stuart","location":{"lat":52.52331642124654,"lon":0.1204877173755654}},{"name":"Timothy Stein","location":{"lat":52.35454375479803,"lon":-1.2941194992512837}},{"name":"Tina Burgess","location":{"lat":52.21227068872349,"lon":-2.5057214969022508}},{"name":"Linda Byers","location":{"lat":51.93283247181968,"lon":-1.5455872644858095}},{"name":"Scott Hahn","location":{"lat":51.582147933998385,"lon":-0.06496051460030072}},{"name":"Christopher Schmidt","location":{"lat":52.02034856723692,"lon":-0.7127989466361417}},{"name":"Jacob Garner","location":{"lat":53.549511770013744,"lon":-2.270742438214537}},{"name":"Leon Paul","location":{"lat":51.90944656347123,"lon":-2.5456171974483417}},{"name":"Clifford McLamb","location":{"lat":53.738509933736694,"lon":-1.4307464496561024}},{"name":"Sharon Strickland","location":{"lat":52.2199772900931,"lon":-0.653645803720869}},{"name":"Theresa Bunn","location":{"lat":53.723781149298965,"lon":-2.2950837896473897}},{"name":"Lewis Christian","location":{"lat":52.3091543517829,"lon":-1.1609986549912397}},{"name":"Shirley Horne","location":{"lat":52.29731550901966,"lon":-1.4062571324852633}},{"name":"Marshall Austin","location":{"lat":53.83385091538469,"lon":-1.369259404241765}},{"name":"Laura Robertson","location":{"lat":52.31163744852027,"lon":-1.363352473566204}},{"name":"Mary Hwang","location":{"lat":52.229314781118525,"lon":-2.5527043396616564}},{"name":"Samantha Gibbs","location":{"lat":51.83760770993903,"lon":-0.9094039046455116}},{"name":"Gail Beasley","location":{"lat":53.4168197990521,"lon":0.15649271322874236}},{"name":"Regina Pennington","location":{"lat":53.45088935114823,"lon":-2.0085658237362987}},{"name":"Louise Peters","location":{"lat":52.8433246543648,"lon":-1.64567199651478}},{"name":"Jeanette Bishop","location":{"lat":51.638757360603115,"lon":-1.4894291618828308}},{"name":"William Harmon","location":{"lat":52.213966718539794,"lon":0.31793604914396356}},{"name":"James Neal","location":{"lat":53.84195722255394,"lon":-0.4390623670478395}},{"name":"Lloyd Graham","location":{"lat":53.888504639051696,"lon":-0.28686817688685196}},{"name":"Marianne Stone","location":{"lat":52.71798857537917,"lon":-0.838541601198723}},{"name":"Darlene Ashley","location":{"lat":51.7911234644105,"lon":-0.5654808450983584}},{"name":"Jennifer Andrews","location":{"lat":52.20401275809317,"lon":-2.269103292650069}},{"name":"Edith Talley","location":{"lat":53.63590143377388,"lon":-1.931035122777113}},{"name":"Raymond House","location":{"lat":53.10190739050897,"lon":-1.7138595952121207}},{"name":"Alicia Gross","location":{"lat":52.97726863129741,"lon":-1.555474210535378}},{"name":"Emily Byrd","location":{"lat":52.54109071293146,"lon":-0.14176749621643348}},{"name":"Carl Kirk","location":{"lat":52.86598815522299,"lon":-2.350399419031313}},{"name":"Jane Gray","location":{"lat":52.16226073212107,"lon":-1.8191571709052663}},{"name":"Colleen Sherman","location":{"lat":52.253216156626785,"lon":-1.8795303841250313}},{"name":"Johnny Hanna","location":{"lat":53.38665992967563,"lon":-0.13428839355192412}},{"name":"Alice Scarborough","location":{"lat":53.00651639601158,"lon":-1.4289591330665814}},{"name":"Mike Parrish","location":{"lat":52.47651276196727,"lon":-2.3133907346409233}},{"name":"Hannah Henson","location":{"lat":52.067825309382236,"lon":0.03421274519875572}},{"name":"Lester Fox","location":{"lat":53.943734423344495,"lon":-0.03314508825862239}},{"name":"Maxine Francis","location":{"lat":51.735284488983275,"lon":0.4414468113582215}},{"name":"Julia French","location":{"lat":53.04644839692446,"lon":0.1501878256082012}},{"name":"Lester Tanner","location":{"lat":52.65487017443745,"lon":0.2792775651976833}},{"name":"Kristine Pickett","location":{"lat":52.746782501553724,"lon":-1.0338004622065677}},{"name":"Aaron Terrell","location":{"lat":52.73417293429119,"lon":-0.8818728803550768}},{"name":"Robyn Craig","location":{"lat":51.80675561972926,"lon":0.03511581031256261}},{"name":"Katie Bell","location":{"lat":52.495151497664466,"lon":-0.5168201426619405}},{"name":"Ian Naylor","location":{"lat":53.75213823143576,"lon":0.29324313856741124}},{"name":"Keith Walsh","location":{"lat":52.37315281218966,"lon":-2.1749038485822747}},{"name":"Kathryn Lyons","location":{"lat":53.92306208995872,"lon":0.34013858389019846}},{"name":"Lawrence Simmons","location":{"lat":52.309605199178186,"lon":-0.5570516367367655}},{"name":"Gwendolyn Shah","location":{"lat":53.029758610606585,"lon":-0.36280700462615467}},{"name":"Glenda Beck","location":{"lat":52.396618422071896,"lon":-2.51106100974086}},{"name":"Sally Reynolds","location":{"lat":51.827635944677624,"lon":-2.5160476147501676}},{"name":"Ann McConnell","location":{"lat":53.01275377504731,"lon":-2.469456516432632}},{"name":"Paula Perez","location":{"lat":52.77920169225064,"lon":0.2891024509629565}},{"name":"Emma Craven","location":{"lat":52.08954211462273,"lon":-1.6458295177464037}},{"name":"Clyde Ayers","location":{"lat":52.14759111070353,"lon":-0.177941485090078}},{"name":"June Bradford","location":{"lat":53.165462599695076,"lon":0.43714719832977167}},{"name":"Steve Proctor","location":{"lat":52.95259179586035,"lon":-1.7212049784508678}},{"name":"Phyllis Willis","location":{"lat":53.04078692564763,"lon":-1.8586255815614208}},{"name":"Lorraine Maynard","location":{"lat":51.891927796706874,"lon":-0.31097642246833734}},{"name":"Pam Stark","location":{"lat":53.327071325343056,"lon":-2.2951952044698554}},{"name":"Helen Moody","location":{"lat":52.82610140285899,"lon":0.24460094540428878}},{"name":"June Han","location":{"lat":52.12314394499835,"lon":-0.6028096694633005}},{"name":"Anna Barr","location":{"lat":52.23443540252517,"lon":-1.7163524480947543}},{"name":"Tommy Adcock","location":{"lat":53.645518930488315,"lon":-2.6359322504674685}},{"name":"Marvin Hahn","location":{"lat":52.17497183254018,"lon":-1.751795509737848}},{"name":"Jeremy Honeycutt","location":{"lat":53.19383616321613,"lon":-0.2006345681014663}},{"name":"Patricia Camp","location":{"lat":52.58332592051208,"lon":0.45352254915305856}},{"name":"Frederick Pruitt","location":{"lat":53.05093158044483,"lon":-2.001481407687151}},{"name":"Samantha Thomas","location":{"lat":53.95810674568466,"lon":-2.305391590144602}},{"name":"Tony Fischer","location":{"lat":51.70549571402408,"lon":-1.1641466348249718}},{"name":"Beverly Lucas","location":{"lat":52.802168644684365,"lon":-0.09695637877164476}},{"name":"Irene Buckley","location":{"lat":52.75648147089004,"lon":0.019564475885195165}},{"name":"Edna Boswell","location":{"lat":52.223071685315944,"lon":0.40719610192850375}},{"name":"Ian Thomson","location":{"lat":51.829438476477186,"lon":-1.0480695409552927}},{"name":"Phyllis Rogers","location":{"lat":53.58409075015226,"lon":0.05602623301299037}},{"name":"Evan Zhao","location":{"lat":51.723359116067016,"lon":-0.7311490062204977}},{"name":"Aaron McMillan","location":{"lat":51.97680306003717,"lon":-2.0673824854448584}},{"name":"Jan Poole","location":{"lat":51.62851536161738,"lon":-2.256082628919334}},{"name":"Nelson Thomas","location":{"lat":52.080778298795856,"lon":0.364888567109396}},{"name":"Marianne Cole","location":{"lat":51.88049269989057,"lon":-0.822427261813176}},{"name":"Eva Fischer","location":{"lat":51.73610786864328,"lon":-0.10533625913994449}},{"name":"Louise Parrott","location":{"lat":52.00865702288531,"lon":-2.2837394589126747}},{"name":"Margaret Horn","location":{"lat":53.13100341168814,"lon":0.42693719700015365}},{"name":"Allan Hester","location":{"lat":53.74883313179842,"lon":-0.4738712989400806}},{"name":"Christopher Bullock","location":{"lat":52.713652934372305,"lon":-1.6119734073930607}},{"name":"Bonnie May","location":{"lat":52.129184516819436,"lon":-0.8506898112974077}},{"name":"Ian Hutchinson","location":{"lat":52.46819382685912,"lon":-1.769518904944916}},{"name":"Albert Silverman","location":{"lat":52.98520401072569,"lon":-1.568202472558969}},{"name":"Jim Hardy","location":{"lat":51.95291609258859,"lon":-1.9348841439399735}},{"name":"Claudia Love","location":{"lat":53.72644118024141,"lon":-1.117713422042438}},{"name":"Eric Hancock","location":{"lat":53.2867701124978,"lon":-0.5877353448297673}},{"name":"Connie Kendall","location":{"lat":51.59873725477619,"lon":-1.6780545543914276}},{"name":"Julia Lutz","location":{"lat":52.88812877732594,"lon":-1.83271256999998}},{"name":"Denise Dennis","location":{"lat":53.26977241199313,"lon":-1.3315248271327822}},{"name":"Michael Brantley","location":{"lat":52.20276445588026,"lon":-0.8372500385301362}},{"name":"Ruby Siegel","location":{"lat":53.831852296960676,"lon":-2.5519260799379055}},{"name":"Grace Hsu","location":{"lat":51.55306780872964,"lon":0.1339994369969859}},{"name":"Victor Spears","location":{"lat":52.77739139291775,"lon":-0.43802289954217954}},{"name":"Rhonda Gardner","location":{"lat":52.904726001775316,"lon":-1.9511982332478106}},{"name":"Nina Underwood","location":{"lat":53.01914679373696,"lon":-2.1594081104941014}},{"name":"Marilyn Gentry","location":{"lat":52.02072594474931,"lon":-1.2673024146624965}},{"name":"Irene Currie","location":{"lat":53.796887131776586,"lon":-1.6383600306359265}},{"name":"Joe Talley","location":{"lat":53.82547952785875,"lon":-0.026601006156548035}},{"name":"Stanley Alford","location":{"lat":52.26222713887461,"lon":-1.625517644007158}},{"name":"Jerry Braun","location":{"lat":52.44944923356999,"lon":-0.7570716399378508}},{"name":"Ross Patel","location":{"lat":52.54726372696759,"lon":-2.7133677042710764}},{"name":"Holly Rosenthal","location":{"lat":53.545103274798045,"lon":-0.6757311218536866}},{"name":"Pam Joyner","location":{"lat":53.28422110715434,"lon":-2.108388939926576}},{"name":"Kyle Abrams","location":{"lat":53.78897820169227,"lon":0.3899097743795452}},{"name":"Andrea Snow","location":{"lat":52.972902382338255,"lon":-0.9255943012968497}},{"name":"Troy Walters","location":{"lat":53.543323855635364,"lon":-2.684608623702679}},{"name":"Marc Camp","location":{"lat":52.70140982837793,"lon":-2.481768817284589}},{"name":"Susan Kane","location":{"lat":52.58343431940159,"lon":-2.4668430074996177}},{"name":"Zachary Keith","location":{"lat":53.58478931419108,"lon":-1.464871837885649}},{"name":"Glenda Keith","location":{"lat":52.2411027005253,"lon":-1.8140381179832503}},{"name":"Samuel Dawson","location":{"lat":51.64820125464025,"lon":0.20634689976790233}},{"name":"Robyn Knowles","location":{"lat":53.69381873251897,"lon":-1.1475538526902687}},{"name":"Sheila Griffith","location":{"lat":52.66826974459014,"lon":-1.9149380021144844}},{"name":"Andrew Bruce","location":{"lat":52.278119538714485,"lon":-0.6564177296557343}},{"name":"Lester Parrish","location":{"lat":52.66339116693404,"lon":0.1857934760164519}},{"name":"Lawrence Hood","location":{"lat":53.59776636461405,"lon":-0.6149934276905644}},{"name":"Eileen Elmore","location":{"lat":53.612418609706125,"lon":-1.210280029961226}},{"name":"Ryan Kidd","location":{"lat":51.52535359501986,"lon":0.0910399924557952}},{"name":"Cameron Sharp","location":{"lat":53.078135001798024,"lon":-1.403004039779192}},{"name":"Gilbert Anthony","location":{"lat":51.94586099844076,"lon":-2.3686127584635797}},{"name":"Herbert McLaughlin","location":{"lat":53.35599357880869,"lon":-2.669876343703357}},{"name":"Natalie Branch","location":{"lat":53.569850109609995,"lon":-0.32966658164989804}},{"name":"Judith Fisher","location":{"lat":52.78942458640713,"lon":0.30033180327125564}},{"name":"Cameron Herring","location":{"lat":53.25528277786956,"lon":-1.7057995485714894}},{"name":"Edna Mayo","location":{"lat":52.749612668424206,"lon":-1.6180536951060462}},{"name":"Tamara Grady","location":{"lat":51.61683851863574,"lon":-2.3428306285002005}},{"name":"Jessie Mason","location":{"lat":53.72097989081076,"lon":-0.021074217978654275}},{"name":"Francis Davis","location":{"lat":51.82914397929039,"lon":0.03719738729199351}},{"name":"Carl Gentry","location":{"lat":52.18255504451713,"lon":-1.307255435725389}},{"name":"Charlotte Bowers","location":{"lat":53.34630222019817,"lon":-1.415970872307299}},{"name":"Lindsay Ramsey","location":{"lat":52.29569696487758,"lon":-0.3012988963192189}},{"name":"Steven Price","location":{"lat":53.87985722068906,"lon":0.13021704085894292}},{"name":"Lucy Young","location":{"lat":52.598967265144985,"lon":-0.9059939611729}},{"name":"Nelson Hardy","location":{"lat":52.49846371981231,"lon":0.3316182411490112}},{"name":"Mark O'Neill","location":{"lat":53.15007073462956,"lon":-1.1463845760528082}},{"name":"Renee Grady","location":{"lat":52.69777309647507,"lon":-0.5823788911860652}},{"name":"Jesse McKnight","location":{"lat":53.65067989767747,"lon":-0.271555770101894}},{"name":"Adam Curry","location":{"lat":52.547091105423036,"lon":-2.1941789297202776}},{"name":"Eddie Doyle","location":{"lat":53.51273365471731,"lon":-2.4514601555967044}},{"name":"Marilyn Gray","location":{"lat":52.41020547690764,"lon":-1.03182334895486}},{"name":"Kim Poole","location":{"lat":53.24094266141788,"lon":-2.457871028373809}},{"name":"Jack Chase","location":{"lat":53.15410074259649,"lon":0.33009316693443935}},{"name":"Philip Drake","location":{"lat":53.1741076747955,"lon":-0.17016037489808156}},{"name":"Renee Herbert","location":{"lat":52.1108012113935,"lon":-2.6772528291206927}},{"name":"Harvey Woodward","location":{"lat":52.0658014646183,"lon":-0.4290999736556653}},{"name":"Neal Hammond","location":{"lat":52.16482281279302,"lon":-1.9405094152539777}},{"name":"Jeanne Hutchinson","location":{"lat":53.90885294073264,"lon":-0.9223646527281415}},{"name":"Marcia Lam","location":{"lat":52.02013417265643,"lon":-0.9275466206860674}},{"name":"Kyle Gregory","location":{"lat":52.96000925346845,"lon":-2.7091879462290023}},{"name":"Todd Middleton","location":{"lat":53.845417654395504,"lon":-0.06439298833417295}},{"name":"Monica Cummings","location":{"lat":53.345163965340916,"lon":-2.46109885690304}},{"name":"Nathan Fink","location":{"lat":51.609921759578604,"lon":-1.0277658513444161}},{"name":"Edith Dillon","location":{"lat":52.71083611265199,"lon":0.22372439719623305}},{"name":"Julia Curtis","location":{"lat":51.6247454079394,"lon":-2.319804524844834}},{"name":"Megan Heller","location":{"lat":52.00523816817159,"lon":-0.5542777140931912}},{"name":"Lucille Kelly","location":{"lat":53.52603134296117,"lon":-2.1681971342870465}},{"name":"Marion Wilcox","location":{"lat":52.522657491769664,"lon":-2.1016332800389237}},{"name":"Andrea Berry","location":{"lat":51.552569894601795,"lon":-2.4765396636482766}},{"name":"Marlene Bryant","location":{"lat":52.256835190229395,"lon":0.11627232945776411}},{"name":"Curtis Barry","location":{"lat":52.61803201784933,"lon":-1.9852510427992889}},{"name":"Kristine Stout","location":{"lat":52.85369607050602,"lon":-1.7586044307112085}},{"name":"Cecil Hardison","location":{"lat":53.866092006127644,"lon":-1.6443782052726612}},{"name":"Meredith Manning","location":{"lat":51.65935363246038,"lon":-0.3476646735160873}},{"name":"Irene Taylor","location":{"lat":52.864614851682035,"lon":-2.3264063629869227}},{"name":"Paul Bush","location":{"lat":52.444843946350865,"lon":-0.17316269041261556}},{"name":"Rodney Zhu","location":{"lat":53.370983770601974,"lon":-1.5166224207781196}},{"name":"Denise Hester","location":{"lat":52.18972992484811,"lon":-1.4298377024993307}},{"name":"Leslie Conrad","location":{"lat":53.439314503108974,"lon":-0.532541986806307}},{"name":"Marie Link","location":{"lat":53.26102929387954,"lon":0.3177514830636752}},{"name":"Geoffrey Moss","location":{"lat":52.31843980718642,"lon":-0.8484621874176486}},{"name":"Jill Pruitt","location":{"lat":53.80791335762986,"lon":-2.180853343922952}},{"name":"Marc Lopez","location":{"lat":51.60638538772582,"lon":-0.8451804861375805}},{"name":"Vicki Finley","location":{"lat":52.011946801252684,"lon":-0.3821892237592719}},{"name":"Daniel Thornton","location":{"lat":53.46679126917658,"lon":-1.0629638882615688}},{"name":"Marian Welch","location":{"lat":52.53359592380539,"lon":-0.2590702703328751}},{"name":"Colleen Moran","location":{"lat":53.06917653590272,"lon":-1.3247538234462877}},{"name":"Priscilla Baker","location":{"lat":53.026638230707725,"lon":-1.1915114239411992}},{"name":"Lester Bruce","location":{"lat":52.93124673375864,"lon":-0.0905725791980112}},{"name":"Dale Poe","location":{"lat":52.39691425325237,"lon":0.28575310729977277}},{"name":"Gloria Moser","location":{"lat":53.876429214233895,"lon":-1.7536262392333284}},{"name":"Tim Pickett","location":{"lat":52.77708707713943,"lon":0.2150253757918188}},{"name":"Cheryl Pate","location":{"lat":53.675980391251585,"lon":-2.1810703767857573}},{"name":"Wade Arthur","location":{"lat":52.98975640439166,"lon":0.030249008547335254}},{"name":"Tim Zhou","location":{"lat":53.51563651862945,"lon":-0.4591533855671921}},{"name":"Ellen Bush","location":{"lat":51.64065911985146,"lon":-2.1179842425452686}},{"name":"Leroy Mullen","location":{"lat":51.59166238434232,"lon":-2.657195868148054}},{"name":"Theresa Gilbert","location":{"lat":52.29615567098006,"lon":-2.460301658712474}},{"name":"Marian Doyle","location":{"lat":53.236091556591,"lon":-2.221134645001723}},{"name":"Jan Horne","location":{"lat":53.32239843084435,"lon":0.2578485191056106}},{"name":"Francis Leonard","location":{"lat":51.58842619882072,"lon":0.4106255901349347}},{"name":"Sharon McNamara","location":{"lat":53.87586106363175,"lon":-0.8393836071617611}},{"name":"Harvey Erickson","location":{"lat":52.403500959089016,"lon":-0.544249712248666}},{"name":"Ben Mayo","location":{"lat":51.538313100874404,"lon":-0.5413581286243181}},{"name":"Harvey Goodwin","location":{"lat":53.89330827548629,"lon":-0.042724144247292095}},{"name":"Harold Horn","location":{"lat":51.531526834962044,"lon":-2.4168438915592128}},{"name":"Wallace Hess","location":{"lat":52.078513245145224,"lon":-2.6183116141046074}},{"name":"Sidney Harding","location":{"lat":52.15870302200962,"lon":-0.6191608240621029}},{"name":"Priscilla Forbes","location":{"lat":52.207646785140504,"lon":-1.8735176434717704}},{"name":"Carole Fitzgerald","location":{"lat":53.57173349828302,"lon":-0.3760829064665834}},{"name":"Marie Denton","location":{"lat":52.67146448350082,"lon":-0.9648290502950916}},{"name":"Lloyd Jacobson","location":{"lat":53.70526204870488,"lon":-1.3674916879952483}},{"name":"Herman Levine","location":{"lat":51.61154124902382,"lon":-1.1909748466219916}},{"name":"Paige Cates","location":{"lat":53.61683621358335,"lon":-2.5770985287109474}},{"name":"Roberta Mullins","location":{"lat":51.85778441020512,"lon":-2.469275322280146}},{"name":"Philip Jennings","location":{"lat":52.54899699749941,"lon":-1.44574018627455}},{"name":"Tony Barbour","location":{"lat":53.45909238577538,"lon":-1.4419918560143403}},{"name":"Joseph Wheeler","location":{"lat":51.773881994529255,"lon":-0.1616649965405741}},{"name":"Justin Howe","location":{"lat":53.451828813184044,"lon":-0.7144035230443189}},{"name":"Holly Nichols","location":{"lat":52.43794348102827,"lon":-2.508870054863704}},{"name":"Alfred Perkins","location":{"lat":53.529311368002666,"lon":-1.908281881669733}},{"name":"Paige McKenzie","location":{"lat":53.31825043475508,"lon":0.3668826185044871}},{"name":"Eleanor Graham","location":{"lat":53.29184719633748,"lon":-0.5887433643345035}},{"name":"Sandy Forrest","location":{"lat":52.49954377675544,"lon":-2.0242271886054155}},{"name":"Wallace Hanson","location":{"lat":53.071318235291756,"lon":-1.1175442830769307}},{"name":"Maxine Knowles","location":{"lat":53.340908154289004,"lon":-2.067107507138367}},{"name":"Kristina Ballard","location":{"lat":52.924535003039495,"lon":-1.2995708439271512}},{"name":"Billy Perry","location":{"lat":53.03287511477208,"lon":-1.881388101570534}},{"name":"Vanessa Norman","location":{"lat":51.94859671877598,"lon":-0.31147089543960105}},{"name":"Tracy Garrison","location":{"lat":51.83999717285288,"lon":-0.7933766520799552}},{"name":"Beth Gentry","location":{"lat":52.38388663223287,"lon":-1.981678049902322}},{"name":"Katherine Nicholson","location":{"lat":52.40770487646829,"lon":-1.116872321913907}},{"name":"Michele Bynum","location":{"lat":53.16266419687231,"lon":-2.492645247953762}},{"name":"Cecil Hardin","location":{"lat":53.292880924044105,"lon":-2.2403232821195664}},{"name":"Tina Barton","location":{"lat":53.53907484095318,"lon":-0.39838786732468234}},{"name":"Dorothy Erickson","location":{"lat":53.040685307759645,"lon":0.13901770693651727}},{"name":"Sue Cox","location":{"lat":52.988130056621394,"lon":-0.33957257739646574}},{"name":"Lucy Elmore","location":{"lat":51.939762240260436,"lon":0.14031284752578754}},{"name":"Joann Brandon","location":{"lat":53.77260456204066,"lon":-0.6454078320204428}},{"name":"Marcus Flynn","location":{"lat":53.27504277647627,"lon":0.0071563670955567815}},{"name":"Marsha Brewer","location":{"lat":52.93929444399547,"lon":-2.2234217533764724}},{"name":"Jan Barefoot","location":{"lat":52.4268002919859,"lon":-1.4155232461913503}},{"name":"Frances Starr","location":{"lat":51.58576463723575,"lon":-1.8387671765997076}},{"name":"Jacob Singer","location":{"lat":53.62802362445849,"lon":-1.9293638815290661}},{"name":"Jimmy Kaufman","location":{"lat":53.727699741230694,"lon":-2.482609435267922}},{"name":"Andrea Porter","location":{"lat":53.799694631090034,"lon":-0.5712793081659777}},{"name":"Eddie Walsh","location":{"lat":52.178669126561225,"lon":-1.8860159209564529}},{"name":"Kara Nichols","location":{"lat":53.492384763923425,"lon":-1.2278916477738526}},{"name":"Charlene Link","location":{"lat":53.32994599540931,"lon":-0.17135874009580032}},{"name":"Linda Cummings","location":{"lat":52.9893908347847,"lon":-0.3015098447794049}},{"name":"Peter Fox","location":{"lat":52.86491836501564,"lon":-0.11855583157804439}},{"name":"Ian Eason","location":{"lat":53.19464303265532,"lon":-1.285674107478766}},{"name":"Sylvia Gardner","location":{"lat":52.76278050573429,"lon":-1.6081648167774776}},{"name":"Christian Hodge","location":{"lat":52.732461877572746,"lon":-1.8702092466366578}},{"name":"Pat Duffy","location":{"lat":51.67451570892027,"lon":-2.4969893762302364}},{"name":"Rhonda Benson","location":{"lat":53.740221485357615,"lon":-2.4973983522601086}},{"name":"Stacey Kay","location":{"lat":53.70002397831453,"lon":-1.7191765801996233}},{"name":"Joanne Lester","location":{"lat":52.176666232063454,"lon":-2.2411411616897987}},{"name":"Vincent Song","location":{"lat":53.04271585345483,"lon":-1.3051243051426253}},{"name":"Jeremy Woodruff","location":{"lat":53.56627473301948,"lon":-0.1638495741378354}},{"name":"Maria Francis","location":{"lat":52.044313802518495,"lon":-1.4420199032501078}},{"name":"Elisabeth Singleton","location":{"lat":53.537131812359846,"lon":0.2917469489694118}},{"name":"Todd Peele","location":{"lat":52.92007072821221,"lon":-0.32074986948394146}},{"name":"Sara Wood","location":{"lat":52.017399035651714,"lon":-1.9972871573545254}},{"name":"Jon Coble","location":{"lat":53.93514631107125,"lon":-2.2138569086721747}},{"name":"Patsy Schwartz","location":{"lat":53.149469487100944,"lon":-1.743938529426845}},{"name":"Sarah Mathews","location":{"lat":53.53752233864639,"lon":-0.8744441198494219}},{"name":"Nathan Lim","location":{"lat":53.26629535376723,"lon":0.2959234611984618}},{"name":"Wendy Ennis","location":{"lat":53.36177911679275,"lon":-0.4935617336537894}},{"name":"Caroline Nash","location":{"lat":52.77937650588683,"lon":-2.0216350991468337}},{"name":"Tracey Morris","location":{"lat":53.189763781441016,"lon":-1.3973819907692568}},{"name":"Eugene Terry","location":{"lat":53.50112836866577,"lon":0.21220345691311238}},{"name":"Shelley Katz","location":{"lat":53.218369866976346,"lon":0.2473621413038738}},{"name":"Ernest Carpenter","location":{"lat":51.96497051811928,"lon":-2.4793951474315716}},{"name":"Kyle Boyer","location":{"lat":52.344111630094005,"lon":-1.5146295902593307}},{"name":"Rodney McLean","location":{"lat":52.80010525041355,"lon":0.18032026950937174}},{"name":"Julian Watson","location":{"lat":52.5644026651103,"lon":-0.9883431311956055}},{"name":"Josephine Martin","location":{"lat":52.68416076923652,"lon":-2.010080531533203}},{"name":"Diana Alexander","location":{"lat":53.281849973088676,"lon":-0.8506919815916603}},{"name":"Steve Sigmon","location":{"lat":53.86945693433687,"lon":-1.6560163688095881}},{"name":"Anita Holmes","location":{"lat":52.15663480773292,"lon":-0.09030320971099748}},{"name":"Ted Coley","location":{"lat":53.05839576625438,"lon":-1.8286368727499882}},{"name":"Jesse Rich","location":{"lat":51.570154292172894,"lon":-1.3595088524734031}},{"name":"Allan Barnett","location":{"lat":53.33565582670049,"lon":-0.5116800697680834}},{"name":"Martin Perkins","location":{"lat":53.84712176417427,"lon":-0.46822013494956893}},{"name":"Joyce Williamson","location":{"lat":52.19391350405043,"lon":-1.526011699035011}},{"name":"Tracy Denton","location":{"lat":53.34190185044679,"lon":-2.440599849165004}},{"name":"Andrew Frazier","location":{"lat":53.87382368999566,"lon":-2.070297212904203}},{"name":"Nathan McConnell","location":{"lat":53.575158659074965,"lon":-1.82135073835935}},{"name":"Emma Hanson","location":{"lat":52.90071264615137,"lon":-1.7441308706233676}},{"name":"Oscar Braswell","location":{"lat":53.3333079286247,"lon":-2.4254245714260887}},{"name":"Barbara Bowden","location":{"lat":52.62539378976748,"lon":-1.3332566199301705}},{"name":"Wayne Sloan","location":{"lat":53.18022355407121,"lon":-1.3318781806902316}},{"name":"Marilyn Hodges","location":{"lat":51.932525320573596,"lon":-1.8478271020010686}},{"name":"Leslie Haynes","location":{"lat":52.537206685112906,"lon":-1.234736776767249}},{"name":"Sherry Dickson","location":{"lat":52.88985130098201,"lon":-2.170549554764084}},{"name":"Caroline Braswell","location":{"lat":52.18300370168729,"lon":-1.25777725671829}},{"name":"Jeanette Abbott","location":{"lat":53.30263717852198,"lon":-1.5491879916958675}},{"name":"Kathryn Massey","location":{"lat":52.392122166940965,"lon":-1.9673878743956363}},{"name":"Heather Scott","location":{"lat":51.77281677152739,"lon":-0.3518645979978636}},{"name":"Laurie Holmes","location":{"lat":53.45946513994472,"lon":-0.49696800279401554}},{"name":"Gail Strauss","location":{"lat":53.480394793880336,"lon":-1.7408294917124658}},{"name":"Gene Knowles","location":{"lat":52.93919908508997,"lon":-1.427127299220326}},{"name":"Edith Wyatt","location":{"lat":51.60143910318898,"lon":-0.29111171795573965}},{"name":"Toni Lehman","location":{"lat":53.94274567758602,"lon":-2.1469138264094783}},{"name":"Carol Hess","location":{"lat":53.86330785299095,"lon":-0.9042501433285204}},{"name":"Jim Wang","location":{"lat":52.37878375337944,"lon":-1.335863285476016}},{"name":"Gloria Kirk","location":{"lat":53.909152841638964,"lon":-1.6021810167868182}},{"name":"Derek Hubbard","location":{"lat":52.0341843205756,"lon":0.1966443430711573}},{"name":"Melanie Gibbs","location":{"lat":53.30424864516215,"lon":-2.3554418813642637}},{"name":"Charlotte Case","location":{"lat":51.7503652421125,"lon":-2.1862171109421413}},{"name":"Cameron Grimes","location":{"lat":52.12405400140095,"lon":-1.0081395419613257}},{"name":"Stephanie Owen","location":{"lat":52.21336430892681,"lon":-0.31090480924249153}},{"name":"Gerald Webster","location":{"lat":51.91257858413376,"lon":-0.8182129067613493}},{"name":"Jon Kane","location":{"lat":53.73520341659876,"lon":-2.3230704597442493}},{"name":"Diana Taylor","location":{"lat":53.92069573891591,"lon":-1.1429115467245354}},{"name":"Stephen Mullins","location":{"lat":53.463108693967015,"lon":-2.5686114865688063}},{"name":"Theresa Holden","location":{"lat":52.242803452505555,"lon":-2.1726559051787615}},{"name":"Terry Barbee","location":{"lat":51.79271100545093,"lon":-2.593443719769135}},{"name":"Paige Webb","location":{"lat":52.03823294313318,"lon":0.0931807858096918}},{"name":"Harry Raynor","location":{"lat":53.0603815323632,"lon":-1.7097060581586532}},{"name":"Vicki Mullen","location":{"lat":53.871339973629226,"lon":0.26235208390977593}},{"name":"Annie Stevens","location":{"lat":52.48954072359492,"lon":-2.5355300320528227}},{"name":"Kelly Ferrell","location":{"lat":52.89718527685171,"lon":-1.9054746859687262}},{"name":"Jerry Huang","location":{"lat":51.68007313322676,"lon":-2.355881673252218}},{"name":"Debbie May","location":{"lat":53.77293461891919,"lon":-1.175873925367845}},{"name":"Thelma Wrenn","location":{"lat":53.29472605424915,"lon":-2.5860655638273933}},{"name":"Calvin Wong","location":{"lat":51.791668686599074,"lon":-2.2553407481417365}},{"name":"Samuel Boyd","location":{"lat":52.0764191636254,"lon":-0.7721452238908257}},{"name":"Carlos Bartlett","location":{"lat":53.08684066744873,"lon":-0.3201047838431599}},{"name":"Tammy Underwood","location":{"lat":53.76300514890694,"lon":-0.28288832537814823}},{"name":"William Sloan","location":{"lat":52.98752141689296,"lon":-0.20852965471987472}},{"name":"Edwin Tate","location":{"lat":52.076205505992185,"lon":-2.092604346720676}},{"name":"Rhonda Kay","location":{"lat":53.257370516129875,"lon":-0.8282147848166912}},{"name":"Danny Reid","location":{"lat":53.926803209179866,"lon":0.08064798215962687}},{"name":"Karen Sparks","location":{"lat":53.40247429905243,"lon":-1.7374091731625105}},{"name":"Gloria Daly","location":{"lat":53.80579821474019,"lon":-1.177376346712238}},{"name":"Virginia Parrish","location":{"lat":51.55370101722959,"lon":-1.5891709839305912}},{"name":"Gail Durham","location":{"lat":52.091099593972466,"lon":-1.6051171538933506}},{"name":"Brenda Galloway","location":{"lat":52.94446728622165,"lon":-2.7243757162882436}},{"name":"Ann Roberts","location":{"lat":53.028548158083254,"lon":-0.3423189495554455}},{"name":"Pamela Carlton","location":{"lat":53.14540221919206,"lon":0.027850866057935075}},{"name":"Kristina Hull","location":{"lat":51.662914470631605,"lon":-1.473363556223205}},{"name":"Frank Blalock","location":{"lat":52.93908971162056,"lon":0.3977296806238386}},{"name":"Marian Gibbs","location":{"lat":52.94545674559897,"lon":-0.3829695643805002}},{"name":"Audrey Bass","location":{"lat":53.674378672517136,"lon":-2.011595939032531}},{"name":"Edwin McLaughlin","location":{"lat":53.71085038853652,"lon":0.22214160171744268}},{"name":"Eva Harding","location":{"lat":52.167495493846985,"lon":-0.36762758231813253}},{"name":"Wayne Garcia","location":{"lat":52.006686265775784,"lon":-0.4317441566655136}},{"name":"Lillian Marshall","location":{"lat":52.67807454812647,"lon":-0.9967229970312135}},{"name":"Tiffany Spivey","location":{"lat":52.15748749907429,"lon":-2.038744096877099}},{"name":"Judith Nance","location":{"lat":53.858670109942395,"lon":-1.6575401676349073}},{"name":"Ronnie Byrd","location":{"lat":52.92676187848043,"lon":-0.6630444336592385}},{"name":"Sherri Heller","location":{"lat":53.40899784623413,"lon":-1.9138465628943413}},{"name":"Jeff Burnette","location":{"lat":52.31976192959104,"lon":-0.4014670363034498}},{"name":"Christopher Pickett","location":{"lat":53.49301856182801,"lon":-1.8765834388107732}},{"name":"Jason Sawyer","location":{"lat":53.88771812914788,"lon":-0.7563793003592991}}]